$GPRMC,091044.00,A,1904.89412,N,07253.30481,E,0.400,,240120,,,A*7E
$GPVTG,,T,,M,0.400,N,0.741,K,A*25
$GPGGA,091044.00,1904.89412,N,07253.30481,E,1,05,5.30,7.9,M,-65.7,M,,*77
$GPGSA,A,3,23,04,08,27,16,,,,,,,,7.60,5.30,5.45*0E
$GPGSV,3,1,10,04,70,084,37,07,32,313,,08,47,114,42,09,63,344,*70
$GPGSV,3,2,10,11,16,151,,16,15,036,26,23,77,067,36,27,33,071,42*79
$GPGSV,3,3,10,28,10,225,,30,11,287,*78
$GPGLL,1904.89412,N,07253.30481,E,091044.00,A,A*66
$GPRMC,091045.00,A,1904.89412,N,07253.30510,E,0.369,,240120,,,A*7E
$GPVTG,,T,,M,0.369,N,0.684,K,A*25
$GPGGA,091045.00,1904.89412,N,07253.30510,E,1,05,5.30,8.4,M,-65.7,M,,*7D
$GPGSA,A,3,23,04,08,27,16,,,,,,,,7.61,5.30,5.46*0C
$GPGSV,3,1,10,04,70,084,37,07,32,313,,08,47,114,42,09,63,344,*70
$GPGSV,3,2,10,11,16,151,,16,15,036,25,23,77,067,36,27,33,071,42*7A
$GPGSV,3,3,10,28,10,225,,30,11,287,*78
$GPGLL,1904.89412,N,07253.30510,E,091045.00,A,A*6E
$GPRMC,091046.00,A,1904.89405,N,07253.30528,E,0.575,,240120,,,A*7B
$GPVTG,,T,,M,0.575,N,1.065,K,A*26
$GPGGA,091046.00,1904.89405,N,07253.30528,E,1,05,5.30,8.6,M,-65.7,M,,*71
$GPGSA,A,3,23,04,08,27,16,,,,,,,,7.61,5.30,5.46*0C
$GPGSV,3,1,10,04,70,084,37,07,32,313,,08,47,114,42,09,63,344,20*72
$GPGSV,3,2,10,11,16,151,,16,15,036,26,23,77,067,37,27,33,071,42*78
$GPGSV,3,3,10,28,10,225,,30,11,287,*78
$GPGLL,1904.89405,N,07253.30528,E,091046.00,A,A*60
$GPRMC,091047.00,A,1904.89400,N,07253.30548,E,0.538,,240120,,,A*70
$GPVTG,,T,,M,0.538,N,0.996,K,A*2B
$GPGGA,091047.00,1904.89400,N,07253.30548,E,1,05,5.30,8.9,M,-65.7,M,,*7C
$GPGSA,A,3,23,04,08,27,16,,,,,,,,7.61,5.30,5.46*0C
$GPGSV,3,1,10,04,70,084,37,07,32,313,,08,47,114,42,09,63,344,*70
$GPGSV,3,2,10,11,16,151,,16,15,036,26,23,77,067,37,27,33,071,43*79
$GPGSV,3,3,10,28,10,225,,30,11,287,*78
$GPGLL,1904.89400,N,07253.30548,E,091047.00,A,A*62
$GPRMC,091048.00,A,1904.89395,N,07253.30566,E,0.370,,240120,,,A*72
$GPVTG,,T,,M,0.370,N,0.686,K,A*2F
$GPGGA,091048.00,1904.89395,N,07253.30566,E,1,05,5.30,9.1,M,-65.7,M,,*7D
$GPGSA,A,3,23,04,08,27,16,,,,,,,,7.61,5.30,5.46*0C
$GPGSV,3,1,10,04,70,084,38,07,32,313,,08,47,114,42,09,63,344,*7F
$GPGSV,3,2,10,11,16,151,,16,15,036,26,23,77,067,37,27,33,071,43*79
$GPGSV,3,3,10,28,10,225,,30,11,287,*78
$GPGLL,1904.89395,N,07253.30566,E,091048.00,A,A*6A
$GPRMC,091049.00,A,1904.89393,N,07253.30587,E,0.302,,240120,,,A*7F
$GPVTG,,T,,M,0.302,N,0.560,K,A*21
$GPGGA,091049.00,1904.89393,N,07253.30587,E,1,05,5.30,9.4,M,-65.7,M,,*70
$GPGSA,A,3,23,04,08,27,16,,,,,,,,7.61,5.30,5.46*0C
$GPGSV,3,1,10,04,70,084,37,07,32,313,,08,47,114,43,09,63,344,*71
$GPGSV,3,2,10,11,16,151,,16,15,036,26,23,77,067,37,27,33,071,42*78
$GPGSV,3,3,10,28,10,225,,30,11,287,*78
$GPGLL,1904.89393,N,07253.30587,E,091049.00,A,A*62
$GPRMC,091050.00,A,1904.89396,N,07253.30609,E,0.527,,240120,,,A*76
$GPVTG,,T,,M,0.527,N,0.977,K,A*2A
$GPGGA,091050.00,1904.89396,N,07253.30609,E,1,05,5.30,9.7,M,-65.7,M,,*7B
$GPGSA,A,3,23,04,08,27,16,,,,,,,,7.61,5.30,5.46*0C
$GPGSV,3,1,10,04,70,084,38,07,32,313,,08,47,114,42,09,63,344,*7F
$GPGSV,3,2,10,11,16,151,,16,15,036,26,23,77,067,37,27,33,071,42*78
$GPGSV,3,3,10,28,10,225,,30,11,287,*78
$GPGLL,1904.89396,N,07253.30609,E,091050.00,A,A*6A
$GPRMC,091051.00,A,1904.89392,N,07253.30610,E,0.451,,240120,,,A*7B
$GPVTG,,T,,M,0.451,N,0.835,K,A*2D
$GPGGA,091051.00,1904.89392,N,07253.30610,E,1,05,5.30,9.6,M,-65.7,M,,*77
$GPGSA,A,3,23,04,08,27,16,,,,,,,,7.61,5.30,5.46*0C
$GPGSV,3,1,10,04,70,084,35,07,32,313,,08,47,114,41,09,63,344,*71
$GPGSV,3,2,10,11,16,151,,16,15,036,26,23,77,067,34,27,33,071,41*78
$GPGSV,3,3,10,28,10,225,,30,11,287,*78
$GPGLL,1904.89392,N,07253.30610,E,091051.00,A,A*67
$GPRMC,091052.00,A,1904.89390,N,07253.30612,E,0.326,,240120,,,A*7F
$GPVTG,,T,,M,0.326,N,0.604,K,A*26
$GPGGA,091052.00,1904.89390,N,07253.30612,E,1,05,5.31,9.5,M,-65.7,M,,*76
$GPGSA,A,3,23,04,08,27,16,,,,,,,,7.62,5.31,5.46*0E
$GPGSV,3,1,10,04,70,084,35,07,32,313,,08,47,114,44,09,63,344,*74
$GPGSV,3,2,10,11,16,151,,16,15,036,26,23,77,067,34,27,33,071,45*7C
$GPGSV,3,3,10,28,10,225,,30,11,287,*78
$GPGLL,1904.89390,N,07253.30612,E,091052.00,A,A*64
$GPRMC,091053.00,A,1904.89388,N,07253.30611,E,0.285,,240120,,,A*7C
$GPVTG,,T,,M,0.285,N,0.528,K,A*23
$GPGGA,091053.00,1904.89388,N,07253.30611,E,1,05,5.31,9.4,M,-65.7,M,,*7C
$GPGSA,A,3,23,04,08,27,16,,,,,,,,7.62,5.31,5.47*0F
$GPGSV,3,1,10,04,70,085,35,07,32,313,,08,47,114,44,09,63,344,*75
$GPGSV,3,2,10,11,16,151,,16,15,036,26,23,77,067,34,27,33,071,44*7D
$GPGSV,3,3,10,28,10,225,,30,11,287,*78
$GPGLL,1904.89388,N,07253.30611,E,091053.00,A,A*6F
$GPRMC,091054.00,A,1904.89382,N,07253.30599,E,0.523,,240120,,,A*79
$GPVTG,,T,,M,0.523,N,0.968,K,A*20
$GPGGA,091054.00,1904.89382,N,07253.30599,E,1,05,5.31,9.2,M,-65.7,M,,*74
$GPGSA,A,3,23,04,08,27,16,,,,,,,,7.62,5.31,5.47*0F
$GPGSV,3,1,10,04,70,085,27,07,32,313,,08,47,114,38,09,63,344,*7D
$GPGSV,3,2,10,11,16,151,,16,15,036,26,23,77,067,31,27,33,071,39*72
$GPGSV,3,3,10,28,10,225,,30,11,287,*78
$GPGLL,1904.89382,N,07253.30599,E,091054.00,A,A*61
$GPRMC,091055.00,A,1904.89388,N,07253.30558,E,1.521,,240120,,,A*7C
$GPVTG,,T,,M,1.521,N,2.816,K,A*29
$GPGGA,091055.00,1904.89388,N,07253.30558,E,1,05,5.31,8.9,M,-65.7,M,,*78
$GPGSA,A,3,23,04,08,27,16,,,,,,,,7.62,5.31,5.47*0F
$GPGSV,5,1,17,04,70,085,16,07,32,313,,08,47,114,30,09,63,344,*76
$GPGSV,5,2,17,11,16,151,,15,,,21,16,15,036,23,17,,,21*7F
$GPGSV,5,3,17,18,,,24,19,,,23,20,,,24,22,,,22*7B
$GPGSV,5,4,17,23,77,067,22,24,,,23,27,33,071,30,28,10,225,*47
$GPGSV,5,5,17,30,11,287,*41
$GPGLL,1904.89388,N,07253.30558,E,091055.00,A,A*67
$GPRMC,091056.00,A,1904.89396,N,07253.30524,E,1.596,,240120,,,A*77
$GPVTG,,T,,M,1.596,N,2.955,K,A*23
$GPGGA,091056.00,1904.89396,N,07253.30524,E,1,05,5.31,8.7,M,-65.7,M,,*71
$GPGSA,A,3,23,04,08,27,16,,,,,,,,7.62,5.31,5.47*0F
$GPGSV,5,1,17,04,70,085,19,07,32,313,,08,47,114,29,09,63,344,21*72
$GPGSV,5,2,17,11,16,151,,15,,,18,16,15,036,20,17,,,17*73
$GPGSV,5,3,17,18,,,20,19,,,19,20,,,20,22,,,19*7A
$GPGSV,5,4,17,23,77,067,18,24,,,19,27,33,071,30,28,10,225,*47
$GPGSV,5,5,17,30,11,287,*41
$GPGLL,1904.89396,N,07253.30524,E,091056.00,A,A*60
$GPRMC,091057.00,A,1904.89398,N,07253.30491,E,1.454,,240120,,,A*78
$GPVTG,,T,,M,1.454,N,2.693,K,A*29
$GPGGA,091057.00,1904.89398,N,07253.30491,E,1,05,5.31,8.5,M,-65.7,M,,*73
$GPGSA,A,3,23,04,08,27,16,,,,,,,,7.62,5.31,5.47*0F
$GPGSV,4,1,14,04,70,085,20,07,32,313,,08,47,114,28,09,63,344,21*7B
$GPGSV,4,2,14,11,16,151,,15,,,14,16,15,036,18,17,,,11*70
$GPGSV,4,3,14,20,,,12,23,77,067,10,24,,,17,27,33,071,30*7B
$GPGSV,4,4,14,28,10,225,,30,11,287,*7C
$GPGLL,1904.89398,N,07253.30491,E,091057.00,A,A*60
$GPRMC,091058.00,A,1904.89404,N,07253.30440,E,2.230,,240120,,,A*7E
$GPVTG,,T,,M,2.230,N,4.129,K,A*2E
$GPGGA,091058.00,1904.89404,N,07253.30440,E,1,04,5.40,8.2,M,-65.7,M,,*72
$GPGSA,A,3,04,08,27,16,,,,,,,,,7.73,5.40,5.53*0D
$GPGSV,4,1,14,04,70,085,19,07,32,313,,08,47,114,28,09,63,345,21*70
$GPGSV,4,2,14,11,16,151,,15,,,10,16,15,036,18,17,,,08*7C
$GPGSV,4,3,14,20,,,09,23,77,067,09,24,,,13,27,33,071,30*7D
$GPGSV,4,4,14,28,10,225,,30,11,287,*7C
$GPGLL,1904.89404,N,07253.30440,E,091058.00,A,A*61
$GPRMC,091059.00,A,1904.89405,N,07253.30400,E,2.755,16.81,240120,,,A*5C
$GPVTG,16.81,T,,M,2.755,N,5.102,K,A*00
$GPGGA,091059.00,1904.89405,N,07253.30400,E,1,05,5.31,7.9,M,-65.7,M,,*75
$GPGSA,A,3,23,04,08,27,16,,,,,,,,7.63,5.31,5.47*0E
$GPGSV,4,1,13,04,70,085,17,07,32,313,,08,47,114,28,09,63,345,21*79
$GPGSV,4,2,13,11,16,151,,16,15,036,18,17,,,08,20,,,09*75
$GPGSV,4,3,13,23,77,067,10,24,,,10,27,33,071,30,28,10,225,*44
$GPGSV,4,4,13,30,11,287,*45
$GPGLL,1904.89405,N,07253.30400,E,091059.00,A,A*65
$GPRMC,091100.00,A,1904.89394,N,07253.30409,E,2.246,,240120,,,A*70
$GPVTG,,T,,M,2.246,N,4.159,K,A*28
$GPGGA,091100.00,1904.89394,N,07253.30409,E,1,05,5.31,7.7,M,-65.7,M,,*70
$GPGSA,A,3,23,04,08,27,16,,,,,,,,7.63,5.31,5.47*0E
$GPGSV,3,1,12,04,70,085,16,07,32,313,,08,47,114,29,09,63,345,22*7C
$GPGSV,3,2,12,11,16,151,,16,15,036,17,17,,,12,20,,,09*77
$GPGSV,3,3,12,23,77,067,11,27,33,071,31,28,10,225,,30,11,287,*7B
$GPGLL,1904.89394,N,07253.30409,E,091100.00,A,A*6E
$GPRMC,091101.00,A,1904.89391,N,07253.30388,E,1.782,,240120,,,A*74
$GPVTG,,T,,M,1.782,N,3.301,K,A*2E
$GPGGA,091101.00,1904.89391,N,07253.30388,E,1,05,5.31,7.3,M,-65.7,M,,*7E
$GPGSA,A,3,23,04,08,27,16,,,,,,,,7.63,5.31,5.48*01
$GPGSV,3,1,11,04,70,085,13,07,32,313,,08,47,114,31,09,63,345,22*73
$GPGSV,3,2,11,11,16,151,,16,15,036,18,20,,,08,23,77,067,16*48
$GPGSV,3,3,11,27,33,071,33,28,10,225,,30,11,287,*4A
$GPGLL,1904.89391,N,07253.30388,E,091101.00,A,A*64
$GPRMC,091102.00,A,1904.89432,N,07253.30427,E,1.370,,240120,,,A*72
$GPVTG,,T,,M,1.370,N,2.537,K,A*25
$GPGGA,091102.00,1904.89432,N,07253.30427,E,1,05,5.32,8.1,M,-65.7,M,,*7F
$GPGSA,A,3,23,04,08,27,16,,,,,,,,7.63,5.32,5.48*02
$GPGSV,3,1,10,04,70,085,24,07,32,313,,08,47,114,39,09,63,345,22*7E
$GPGSV,3,2,10,11,16,151,,16,15,036,19,23,77,067,30,27,33,071,40*71
$GPGSV,3,3,10,28,10,225,,30,11,287,*78
$GPGLL,1904.89432,N,07253.30427,E,091102.00,A,A*6B
$GPRMC,091103.00,A,1904.89449,N,07253.30593,E,1.127,,240120,,,A*71
$GPVTG,,T,,M,1.127,N,2.087,K,A*2B
$GPGGA,091103.00,1904.89449,N,07253.30593,E,1,05,5.32,9.8,M,-65.7,M,,*74
$GPGSA,A,3,23,04,08,27,16,,,,,,,,7.63,5.32,5.48*02
$GPGSV,3,1,10,04,70,085,33,07,32,313,,08,47,114,40,09,63,345,21*75
$GPGSV,3,2,10,11,16,151,,16,15,036,22,23,77,067,35,27,33,071,40*7C
$GPGSV,3,3,10,28,10,225,,30,11,287,*78
$GPGLL,1904.89449,N,07253.30593,E,091103.00,A,A*68
$GPRMC,091104.00,A,1904.89466,N,07253.30714,E,1.052,,240120,,,A*75
$GPVTG,,T,,M,1.052,N,1.948,K,A*21
$GPGGA,091104.00,1904.89466,N,07253.30714,E,1,05,5.32,11.9,M,-65.7,M,,*4B
$GPGSA,A,3,23,04,08,27,16,,,,,,,,7.64,5.32,5.48*05
$GPGSV,3,1,10,04,70,085,34,07,32,313,,08,47,114,40,09,63,345,*71
$GPGSV,3,2,10,11,16,151,,16,15,036,22,23,77,067,35,27,33,071,40*7C
$GPGSV,3,3,10,28,10,225,,30,11,287,*78
$GPGLL,1904.89466,N,07253.30714,E,091104.00,A,A*6F
$GPRMC,091105.00,A,1904.89476,N,07253.30738,E,0.709,,240120,,,A*73
$GPVTG,,T,,M,0.709,N,1.312,K,A*2C
$GPGGA,091105.00,1904.89476,N,07253.30738,E,1,05,5.32,12.3,M,-65.7,M,,*4C
$GPGSA,A,3,23,04,08,27,16,,,,,,,,7.64,5.32,5.48*05
$GPGSV,3,1,10,04,70,085,34,07,32,313,,08,47,114,37,09,63,345,*71
$GPGSV,3,2,10,11,16,151,,16,15,036,22,23,77,068,34,27,33,071,40*72
$GPGSV,3,3,10,28,10,225,,30,11,287,*78
$GPGLL,1904.89476,N,07253.30738,E,091105.00,A,A*61
$GPRMC,091106.00,A,1904.89481,N,07253.30729,E,0.680,,240120,,,A*78
$GPVTG,,T,,M,0.680,N,1.259,K,A*22
$GPGGA,091106.00,1904.89481,N,07253.30729,E,1,05,5.32,12.3,M,-65.7,M,,*47
$GPGSA,A,3,23,04,08,27,16,,,,,,,,7.64,5.32,5.48*05
$GPGSV,3,1,10,04,70,085,33,07,32,313,,08,47,114,37,09,63,345,*76
$GPGSV,3,2,10,11,16,151,,16,15,036,23,23,77,068,29,27,33,071,40*7F
$GPGSV,3,3,10,28,10,225,,30,11,287,*78
$GPGLL,1904.89481,N,07253.30729,E,091106.00,A,A*6A
$GPRMC,091107.00,A,1904.89475,N,07253.30710,E,1.064,,240120,,,A*75
$GPVTG,,T,,M,1.064,N,1.971,K,A*2E
$GPGGA,091107.00,1904.89475,N,07253.30710,E,1,05,5.32,11.7,M,-65.7,M,,*40
$GPGSA,A,3,23,04,08,27,16,,,,,,,,7.64,5.32,5.48*05
$GPGSV,3,1,10,04,70,085,33,07,32,313,,08,47,114,37,09,63,345,*76
$GPGSV,3,2,10,11,16,151,,16,15,036,24,23,77,068,29,27,33,071,40*78
$GPGSV,3,3,10,28,10,225,,30,11,287,*78
$GPGLL,1904.89475,N,07253.30710,E,091107.00,A,A*6A
$GPRMC,091108.00,A,1904.89484,N,07253.30722,E,1.002,,240120,,,A*75
$GPVTG,,T,,M,1.002,N,1.855,K,A*29
$GPGGA,091108.00,1904.89484,N,07253.30722,E,1,05,5.32,11.9,M,-65.7,M,,*4E
$GPGSA,A,3,23,04,08,27,16,,,,,,,,7.64,5.32,5.48*05
$GPGSV,3,1,10,04,70,085,33,07,32,313,,08,47,114,43,09,63,345,*75
$GPGSV,3,2,10,11,16,151,,16,15,036,25,23,77,068,33,27,33,071,44*76
$GPGSV,3,3,10,28,10,225,,30,11,287,*78
$GPGLL,1904.89484,N,07253.30722,E,091108.00,A,A*6A
$GPRMC,091109.00,A,1904.89463,N,07253.30780,E,0.730,,240120,,,A*72
$GPVTG,,T,,M,0.730,N,1.352,K,A*22
$GPGGA,091109.00,1904.89463,N,07253.30780,E,1,05,5.32,11.8,M,-65.7,M,,*4F
$GPGSA,A,3,23,04,08,27,16,,,,,,,,7.64,5.32,5.49*04
$GPGSV,3,1,10,04,70,085,37,07,32,313,,08,47,114,43,09,63,345,*71
$GPGSV,3,2,10,11,16,151,,16,15,036,26,23,77,068,38,27,33,071,43*79
$GPGSV,3,3,10,28,10,225,,30,11,287,*78
$GPGLL,1904.89463,N,07253.30780,E,091109.00,A,A*6A
$GPRMC,091110.00,A,1904.89453,N,07253.30741,E,0.729,,240120,,,A*7C
$GPVTG,,T,,M,0.729,N,1.351,K,A*29
$GPGGA,091110.00,1904.89453,N,07253.30741,E,1,05,5.32,11.3,M,-65.7,M,,*42
$GPGSA,A,3,23,04,08,27,16,,,,,,,,7.65,5.32,5.49*05
$GPGSV,3,1,10,04,70,085,39,07,32,313,,08,47,114,42,09,63,345,*7E
$GPGSV,3,2,10,11,16,151,,16,15,036,26,23,77,068,38,27,33,071,42*78
$GPGSV,3,3,10,28,10,225,,30,11,287,*78
$GPGLL,1904.89453,N,07253.30741,E,091110.00,A,A*6C
$GPRMC,091111.00,A,1904.89454,N,07253.30746,E,0.851,,240120,,,A*7D
$GPVTG,,T,,M,0.851,N,1.577,K,A*2B
$GPGGA,091111.00,1904.89454,N,07253.30746,E,1,05,5.32,11.6,M,-65.7,M,,*46
$GPGSA,A,3,23,04,08,27,16,,,,,,,,7.65,5.32,5.49*05
$GPGSV,3,1,10,04,70,085,39,07,32,313,,08,47,114,44,09,63,345,*78
$GPGSV,3,2,10,11,16,151,,16,15,036,25,23,77,068,39,27,33,071,43*7B
$GPGSV,3,3,10,28,10,225,,30,11,287,*78
$GPGLL,1904.89454,N,07253.30746,E,091111.00,A,A*6D
$GPRMC,091112.00,A,1904.89454,N,07253.30794,E,0.964,,240120,,,A*76
$GPVTG,,T,,M,0.964,N,1.786,K,A*20
$GPGGA,091112.00,1904.89454,N,07253.30794,E,1,05,5.33,12.3,M,-65.7,M,,*4D
$GPGSA,A,3,23,04,08,27,16,,,,,,,,7.65,5.33,5.49*04
$GPGSV,3,1,10,04,70,085,39,07,32,313,,08,47,114,45,09,63,345,*79
$GPGSV,3,2,10,11,16,151,,16,15,036,25,23,77,068,39,27,33,071,43*7B
$GPGSV,3,3,10,28,10,225,,30,11,287,*78
$GPGLL,1904.89454,N,07253.30794,E,091112.00,A,A*61
$GPRMC,091113.00,A,1904.89451,N,07253.30804,E,0.695,,240120,,,A*75
$GPVTG,,T,,M,0.695,N,1.288,K,A*2A
$GPGGA,091113.00,1904.89451,N,07253.30804,E,1,05,5.33,12.6,M,-65.7,M,,*4A
$GPGSA,A,3,23,04,08,27,16,,,,,,,,7.65,5.33,5.49*04
$GPGSV,3,1,10,04,70,085,38,07,32,313,,08,47,114,44,09,63,345,*79
$GPGSV,3,2,10,11,16,151,,16,15,036,26,23,77,068,37,27,33,071,44*71
$GPGSV,3,3,10,28,10,225,,30,11,287,*78
$GPGLL,1904.89451,N,07253.30804,E,091113.00,A,A*63
$GPRMC,091114.00,A,1904.89432,N,07253.30798,E,0.444,,240120,,,A*73
$GPVTG,,T,,M,0.444,N,0.822,K,A*2F
$GPGGA,091114.00,1904.89432,N,07253.30798,E,1,05,5.33,12.2,M,-65.7,M,,*46
$GPGSA,A,3,23,04,08,27,16,,,,,,,,7.65,5.33,5.49*04
$GPGSV,3,1,10,04,70,085,38,07,32,313,,08,47,114,43,09,63,345,*7E
$GPGSV,3,2,10,11,16,151,,16,15,036,27,23,77,068,37,27,33,071,44*70
$GPGSV,3,3,10,28,10,225,,30,11,287,*78
$GPGLL,1904.89432,N,07253.30798,E,091114.00,A,A*6B
$GPRMC,091115.00,A,1904.89420,N,07253.30810,E,0.344,,240120,,,A*79
$GPVTG,,T,,M,0.344,N,0.638,K,A*2D
$GPGGA,091115.00,1904.89420,N,07253.30810,E,1,05,5.33,12.3,M,-65.7,M,,*4A
$GPGSA,A,3,23,04,08,27,16,,,,,,,,7.65,5.33,5.49*04
$GPGSV,3,1,11,03,29,190,,04,70,085,38,07,32,313,,08,47,114,43*71
$GPGSV,3,2,11,09,63,345,,11,16,151,,16,15,036,27,23,77,068,37*7C
$GPGSV,3,3,11,27,33,071,44,28,10,225,,30,11,287,*4A
$GPGLL,1904.89420,N,07253.30810,E,091115.00,A,A*66
$GPRMC,091116.00,A,1904.89400,N,07253.30810,E,0.722,,240120,,,A*7C
$GPVTG,,T,,M,0.722,N,1.336,K,A*23
$GPGGA,091116.00,1904.89400,N,07253.30810,E,1,05,5.33,12.1,M,-65.7,M,,*49
$GPGSA,A,3,23,04,08,27,16,,,,,,,,7.65,5.33,5.50*0C
$GPGSV,3,1,11,03,29,190,,04,70,085,38,07,32,313,,08,47,114,43*71
$GPGSV,3,2,11,09,63,345,,11,16,151,,16,15,036,27,23,77,068,37*7C
$GPGSV,3,3,11,27,33,071,44,28,10,225,,30,11,287,*4A
$GPGLL,1904.89400,N,07253.30810,E,091116.00,A,A*67
$GPRMC,091117.00,A,1904.89389,N,07253.30860,E,0.658,,240120,,,A*70
$GPVTG,,T,,M,0.658,N,1.219,K,A*23
$GPGGA,091117.00,1904.89389,N,07253.30860,E,1,05,5.33,12.6,M,-65.7,M,,*4E
$GPGSA,A,3,23,04,08,27,16,,,,,,,,7.66,5.33,5.50*0F
$GPGSV,3,1,11,03,29,190,,04,70,085,39,07,32,313,,08,47,114,44*77
$GPGSV,3,2,11,09,63,345,,11,16,151,,16,15,036,27,23,77,068,40*7C
$GPGSV,3,3,11,27,33,071,42,28,10,225,,30,11,287,*4C
$GPGLL,1904.89389,N,07253.30860,E,091117.00,A,A*67
$GPRMC,091118.00,A,1904.89398,N,07253.30886,E,0.385,,240120,,,A*72
$GPVTG,,T,,M,0.385,N,0.713,K,A*28
$GPGGA,091118.00,1904.89398,N,07253.30886,E,1,05,5.33,13.0,M,-65.7,M,,*4E
$GPGSA,A,3,23,04,08,27,16,,,,,,,,7.66,5.33,5.50*0F
$GPGSV,3,1,11,03,29,190,,04,70,085,38,07,32,313,,08,47,114,44*76
$GPGSV,3,2,11,09,63,345,,11,16,151,,16,15,036,27,23,77,068,37*7C
$GPGSV,3,3,11,27,33,071,43,28,10,225,,30,11,287,*4D
$GPGLL,1904.89398,N,07253.30886,E,091118.00,A,A*60
$GPRMC,091119.00,A,1904.89393,N,07253.30894,E,0.453,,240120,,,A*77
$GPVTG,,T,,M,0.453,N,0.839,K,A*23
$GPGGA,091119.00,1904.89393,N,07253.30894,E,1,05,5.33,13.1,M,-65.7,M,,*46
$GPGSA,A,3,23,04,08,27,16,,,,,,,,7.66,5.33,5.50*0F
$GPGSV,3,1,11,03,29,190,,04,70,085,38,07,32,313,,08,47,114,42*70
$GPGSV,3,2,11,09,63,345,,11,16,151,,16,15,036,26,23,77,068,38*72
$GPGSV,3,3,11,27,33,071,44,28,10,225,,30,11,287,*4A
$GPGLL,1904.89393,N,07253.30894,E,091119.00,A,A*69
$GPRMC,091120.00,A,1904.89386,N,07253.30906,E,0.495,,240120,,,A*79
$GPVTG,,T,,M,0.495,N,0.917,K,A*24
$GPGGA,091120.00,1904.89386,N,07253.30906,E,1,05,5.33,13.1,M,-65.7,M,,*42
$GPGSA,A,3,23,04,08,27,16,,,,,,,,7.66,5.33,5.50*0F
$GPGSV,3,1,11,03,29,190,,04,70,085,38,07,32,313,,08,47,114,41*73
$GPGSV,3,2,11,09,63,345,,11,16,151,,16,15,036,25,23,77,068,38*71
$GPGSV,3,3,11,27,33,071,43,28,10,225,,30,11,287,*4D
$GPGLL,1904.89386,N,07253.30906,E,091120.00,A,A*6D
$GPRMC,091121.00,A,1904.89389,N,07253.30918,E,0.670,,240120,,,A*71
$GPVTG,,T,,M,0.670,N,1.241,K,A*24
$GPGGA,091121.00,1904.89389,N,07253.30918,E,1,05,5.33,13.3,M,-65.7,M,,*41
$GPGSA,A,3,23,04,08,27,16,,,,,,,,7.66,5.33,5.50*0F
$GPGSV,3,1,11,03,29,190,,04,70,085,38,07,32,313,,08,47,114,41*73
$GPGSV,3,2,11,09,63,345,,11,16,151,,16,15,036,25,23,77,068,38*71
$GPGSV,3,3,11,27,33,071,43,28,10,225,,30,11,287,*4D
$GPGLL,1904.89389,N,07253.30918,E,091121.00,A,A*6C
$GPRMC,091122.00,A,1904.89396,N,07253.30938,E,0.502,,240120,,,A*78
$GPVTG,,T,,M,0.502,N,0.929,K,A*26
$GPGGA,091122.00,1904.89396,N,07253.30938,E,1,05,5.34,13.6,M,-65.7,M,,*4C
$GPGSA,A,3,23,04,08,27,16,,,,,,,,7.66,5.34,5.50*08
$GPGSV,3,1,11,03,29,190,,04,70,085,38,07,32,313,,08,47,114,41*73
$GPGSV,3,2,11,09,63,345,,11,16,151,,16,15,036,25,23,77,068,38*71
$GPGSV,3,3,11,27,33,071,43,28,10,225,,30,11,287,*4D
$GPGLL,1904.89396,N,07253.30938,E,091122.00,A,A*63
$GPRMC,091123.00,A,1904.89404,N,07253.30951,E,0.426,,240120,,,A*7D
$GPVTG,,T,,M,0.426,N,0.788,K,A*24
$GPGGA,091123.00,1904.89404,N,07253.30951,E,1,05,5.34,13.8,M,-65.7,M,,*40
$GPGSA,A,3,23,04,08,27,16,,,,,,,,7.67,5.34,5.50*09
$GPGSV,3,1,11,03,29,190,,04,70,085,38,07,32,313,,08,47,114,41*73
$GPGSV,3,2,11,09,63,345,,11,16,151,,16,15,036,25,23,77,068,38*71
$GPGSV,3,3,11,27,33,071,43,28,10,225,,30,11,287,*4D
$GPGLL,1904.89404,N,07253.30951,E,091123.00,A,A*61
$GPRMC,091124.00,A,1904.89410,N,07253.30960,E,0.561,,240120,,,A*7F
$GPVTG,,T,,M,0.561,N,1.039,K,A*2A
$GPGGA,091124.00,1904.89410,N,07253.30960,E,1,05,5.34,13.9,M,-65.7,M,,*41
$GPGSA,A,3,23,04,08,27,16,,,,,,,,7.67,5.34,5.51*08
$GPGSV,3,1,11,03,29,190,,04,70,085,38,07,32,313,,08,47,114,42*70
$GPGSV,3,2,11,09,63,345,,11,16,151,,16,15,036,25,23,77,068,38*71
$GPGSV,3,3,11,27,33,071,43,28,10,225,,30,11,287,*4D
$GPGLL,1904.89410,N,07253.30960,E,091124.00,A,A*61
$GPRMC,091125.00,A,1904.89416,N,07253.30966,E,0.729,,240120,,,A*70
$GPVTG,,T,,M,0.729,N,1.350,K,A*28
$GPGGA,091125.00,1904.89416,N,07253.30966,E,1,05,5.34,14.1,M,-65.7,M,,*4F
$GPGSA,A,3,23,04,08,27,16,,,,,,,,7.67,5.34,5.51*08
$GPGSV,3,1,11,03,29,190,,04,70,085,38,07,32,313,,08,47,114,41*73
$GPGSV,3,2,11,09,63,345,,11,16,151,,16,15,036,25,23,77,068,38*71
$GPGSV,3,3,11,27,33,071,43,28,10,225,,30,11,287,*4D
$GPGLL,1904.89416,N,07253.30966,E,091125.00,A,A*60
$GPRMC,091126.00,A,1904.89423,N,07253.30961,E,0.554,,240120,,,A*7A
$GPVTG,,T,,M,0.554,N,1.026,K,A*22
$GPGGA,091126.00,1904.89423,N,07253.30961,E,1,05,5.34,14.1,M,-65.7,M,,*4D
$GPGSA,A,3,23,04,08,27,16,,,,,,,,7.67,5.34,5.51*08
$GPGSV,3,1,11,03,29,190,,04,70,085,38,07,32,313,,08,47,114,42*70
$GPGSV,3,2,11,09,63,345,,11,16,151,,16,15,036,26,23,77,068,38*72
$GPGSV,3,3,11,27,33,071,43,28,10,225,,30,11,287,*4D
$GPGLL,1904.89423,N,07253.30961,E,091126.00,A,A*62
$GPRMC,091127.00,A,1904.89428,N,07253.30959,E,0.154,,240120,,,A*7F
$GPVTG,,T,,M,0.154,N,0.285,K,A*2C
$GPGGA,091127.00,1904.89428,N,07253.30959,E,1,05,5.34,14.1,M,-65.7,M,,*4C
$GPGSA,A,3,23,04,08,27,16,,,,,,,,7.67,5.34,5.51*08
$GPGSV,3,1,11,03,29,190,,04,70,085,38,07,32,313,,08,47,114,42*70
$GPGSV,3,2,11,09,63,345,,11,16,151,,16,15,036,25,23,77,068,38*71
$GPGSV,3,3,11,27,33,071,45,28,10,225,,30,11,287,*4B
$GPGLL,1904.89428,N,07253.30959,E,091127.00,A,A*63
$GPRMC,091128.00,A,1904.89432,N,07253.30955,E,0.132,,240120,,,A*77
$GPVTG,,T,,M,0.132,N,0.244,K,A*21
$GPGGA,091128.00,1904.89432,N,07253.30955,E,1,05,5.34,14.1,M,-65.7,M,,*44
$GPGSA,A,3,23,04,08,27,16,,,,,,,,7.67,5.34,5.51*08
$GPGSV,3,1,11,03,29,190,17,04,70,085,38,07,32,313,,08,47,114,42*76
$GPGSV,3,2,11,09,63,345,,11,16,151,,16,15,036,26,23,77,068,38*72
$GPGSV,3,3,11,27,33,071,45,28,10,225,16,30,11,287,*4C
$GPGLL,1904.89432,N,07253.30955,E,091128.00,A,A*6B
$GPRMC,091129.00,A,1904.89431,N,07253.30949,E,0.350,,240120,,,A*7E
$GPVTG,,T,,M,0.350,N,0.647,K,A*20
$GPGGA,091129.00,1904.89431,N,07253.30949,E,1,05,5.34,14.0,M,-65.7,M,,*4A
$GPGSA,A,3,23,04,08,27,16,,,,,,,,7.68,5.34,5.51*07
$GPGSV,3,1,11,03,29,189,16,04,70,085,38,07,32,313,,08,47,114,42*7F
$GPGSV,3,2,11,09,63,345,,11,16,151,,16,15,036,26,23,77,068,38*72
$GPGSV,3,3,11,27,33,071,45,28,10,225,14,30,11,287,*4E
$GPGLL,1904.89431,N,07253.30949,E,091129.00,A,A*64
$GPRMC,091130.00,A,1904.89432,N,07253.30948,E,0.460,,240120,,,A*70
$GPVTG,,T,,M,0.460,N,0.852,K,A*2E
$GPGGA,091130.00,1904.89432,N,07253.30948,E,1,05,5.34,14.0,M,-65.7,M,,*40
$GPGSA,A,3,23,04,08,27,16,,,,,,,,7.68,5.34,5.51*07
$GPGSV,3,1,11,03,29,189,12,04,70,086,38,07,32,313,,08,47,114,41*7B
$GPGSV,3,2,11,09,63,345,,11,16,151,,16,15,036,25,23,77,068,37*7E
$GPGSV,3,3,11,27,33,071,44,28,10,225,13,30,11,287,*48
$GPGLL,1904.89432,N,07253.30948,E,091130.00,A,A*6E
$GPRMC,091131.00,A,1904.89431,N,07253.30949,E,0.274,,240120,,,A*70
$GPVTG,,T,,M,0.274,N,0.508,K,A*2F
$GPGGA,091131.00,1904.89431,N,07253.30949,E,1,05,5.34,14.0,M,-65.7,M,,*43
$GPGSA,A,3,23,04,08,27,16,,,,,,,,7.68,5.34,5.51*07
$GPGSV,3,1,11,03,29,189,09,04,70,086,38,07,32,313,,08,47,114,41*71
$GPGSV,3,2,11,09,63,345,21,11,16,151,,16,15,036,25,23,77,068,37*7D
$GPGSV,3,3,11,27,33,071,44,28,10,225,13,30,11,287,*48
$GPGLL,1904.89431,N,07253.30949,E,091131.00,A,A*6D
$GPRMC,091132.00,A,1904.89426,N,07253.30940,E,0.224,,240120,,,A*79
$GPVTG,,T,,M,0.224,N,0.416,K,A*24
$GPGGA,091132.00,1904.89426,N,07253.30940,E,1,05,5.34,13.9,M,-65.7,M,,*41
$GPGSA,A,3,23,04,08,27,16,,,,,,,,7.68,5.34,5.52*04
$GPGSV,3,1,11,03,29,189,08,04,70,086,38,07,32,313,,08,47,114,41*70
$GPGSV,3,2,11,09,63,345,19,11,16,151,,16,15,036,25,23,77,068,37*76
$GPGSV,3,3,11,27,33,071,45,28,10,225,13,30,11,287,*49
$GPGLL,1904.89426,N,07253.30940,E,091132.00,A,A*61
$GPRMC,091133.00,A,1904.89420,N,07253.30927,E,0.490,,240120,,,A*76
$GPVTG,,T,,M,0.490,N,0.908,K,A*2F
$GPGGA,091133.00,1904.89420,N,07253.30927,E,1,05,5.35,13.6,M,-65.7,M,,*49
$GPGSA,A,3,23,04,08,27,16,,,,,,,,7.68,5.35,5.52*05
$GPGSV,3,1,11,03,29,189,08,04,70,086,38,07,32,314,,08,47,114,43*75
$GPGSV,3,2,11,09,63,345,20,11,16,151,,16,15,036,26,23,77,068,37*7F
$GPGSV,3,3,11,27,33,071,44,28,10,225,13,30,11,287,*48
$GPGLL,1904.89420,N,07253.30927,E,091133.00,A,A*67
$GPRMC,091134.00,A,1904.89414,N,07253.30906,E,0.923,,240120,,,A*70
$GPVTG,,T,,M,0.923,N,1.709,K,A*24
$GPGGA,091134.00,1904.89414,N,07253.30906,E,1,05,5.35,13.3,M,-65.7,M,,*4F
$GPGSA,A,3,23,04,08,27,16,,,,,,,,7.68,5.35,5.52*05
$GPGSV,3,1,11,03,29,189,06,04,70,086,38,07,32,314,,08,47,113,44*7B
$GPGSV,3,2,11,09,63,345,20,11,16,151,,16,15,036,26,23,77,068,37*7F
$GPGSV,3,3,11,27,33,071,44,28,10,225,06,30,11,287,*4C
$GPGLL,1904.89414,N,07253.30906,E,091134.00,A,A*64
$GPRMC,091135.00,A,1904.89406,N,07253.30888,E,0.848,,240120,,,A*79
$GPVTG,,T,,M,0.848,N,1.571,K,A*25
$GPGGA,091135.00,1904.89406,N,07253.30888,E,1,05,5.35,13.0,M,-65.7,M,,*49
$GPGSA,A,3,23,04,08,27,16,,,,,,,,7.69,5.35,5.52*04
$GPGSV,3,1,11,03,29,189,06,04,70,086,37,07,32,314,,08,47,113,43*73
$GPGSV,3,2,11,09,63,345,21,11,16,151,,16,15,036,26,23,77,068,36*7F
$GPGSV,3,3,11,27,33,071,44,28,10,225,06,30,11,287,*4C
$GPGLL,1904.89406,N,07253.30888,E,091135.00,A,A*61
$GPRMC,091136.00,A,1904.89399,N,07253.30870,E,0.479,,240120,,,A*72
$GPVTG,,T,,M,0.479,N,0.888,K,A*21
$GPGGA,091136.00,1904.89399,N,07253.30870,E,1,05,5.35,12.7,M,-65.7,M,,*4A
$GPGSA,A,3,23,04,08,27,16,,,,,,,,7.69,5.35,5.52*04
$GPGSV,3,1,11,03,29,189,06,04,70,086,37,07,32,314,,08,47,113,43*73
$GPGSV,3,2,11,09,63,345,22,11,16,151,,16,15,036,27,23,77,068,36*7D
$GPGSV,3,3,11,27,33,071,44,28,10,225,06,30,11,287,*4C
$GPGLL,1904.89399,N,07253.30870,E,091136.00,A,A*64
$GPRMC,091137.00,A,1904.89395,N,07253.30854,E,0.447,,240120,,,A*74
$GPVTG,,T,,M,0.447,N,0.828,K,A*26
$GPGGA,091137.00,1904.89395,N,07253.30854,E,1,05,5.35,12.4,M,-65.7,M,,*42
$GPGSA,A,3,23,04,08,27,16,,,,,,,,7.69,5.35,5.52*04
$GPGSV,3,1,11,03,29,189,06,04,70,086,37,07,32,314,,08,47,113,43*73
$GPGSV,3,2,11,09,63,345,22,11,16,151,,16,15,036,27,23,77,068,36*7D
$GPGSV,3,3,11,27,33,071,44,28,10,225,06,30,11,287,*4C
$GPGLL,1904.89395,N,07253.30854,E,091137.00,A,A*6F
$GPRMC,091138.00,A,1904.89391,N,07253.30838,E,0.717,,240120,,,A*73
$GPVTG,,T,,M,0.717,N,1.328,K,A*2A
$GPGGA,091138.00,1904.89391,N,07253.30838,E,1,05,5.35,12.1,M,-65.7,M,,*46
$GPGSA,A,3,23,04,08,27,16,,,,,,,,7.69,5.35,5.52*04
$GPGSV,3,1,11,03,29,189,06,04,70,086,37,07,32,314,,08,47,113,43*73
$GPGSV,3,2,11,09,63,345,22,11,16,151,,16,15,036,27,23,77,068,36*7D
$GPGSV,3,3,11,27,33,071,44,28,10,225,06,30,11,287,*4C
$GPGLL,1904.89391,N,07253.30838,E,091138.00,A,A*6E
$GPRMC,091139.00,A,1904.89384,N,07253.30820,E,0.740,,240120,,,A*7D
$GPVTG,,T,,M,0.740,N,1.371,K,A*24
$GPGGA,091139.00,1904.89384,N,07253.30820,E,1,05,5.35,11.8,M,-65.7,M,,*40
$GPGSA,A,3,23,04,08,27,16,,,,,,,,7.69,5.35,5.53*05
$GPGSV,3,1,11,03,29,189,06,04,70,086,37,07,32,314,,08,47,113,43*73
$GPGSV,3,2,11,09,63,345,22,11,16,151,,16,15,036,27,23,77,068,36*7D
$GPGSV,3,3,11,27,33,071,44,28,10,225,06,30,11,287,*4C
$GPGLL,1904.89384,N,07253.30820,E,091139.00,A,A*62
$GPRMC,091140.00,A,1904.89376,N,07253.30799,E,0.468,,240120,,,A*7A
$GPVTG,,T,,M,0.468,N,0.867,K,A*20
$GPGGA,091140.00,1904.89376,N,07253.30799,E,1,05,5.35,11.4,M,-65.7,M,,*42
$GPGSA,A,3,23,04,08,27,16,,,,,,,,7.69,5.35,5.53*05
$GPGSV,3,1,11,03,29,189,08,04,70,086,37,07,32,314,,08,47,113,42*7C
$GPGSV,3,2,11,09,63,345,21,11,16,151,,16,15,036,27,23,77,068,36*7E
$GPGSV,3,3,11,27,33,071,44,28,10,225,06,30,11,287,*4C
$GPGLL,1904.89376,N,07253.30799,E,091140.00,A,A*6C
$GPRMC,091141.00,A,1904.89362,N,07253.30777,E,0.344,,240120,,,A*77
$GPVTG,,T,,M,0.344,N,0.638,K,A*2D
$GPGGA,091141.00,1904.89362,N,07253.30777,E,1,05,5.35,11.0,M,-65.7,M,,*42
$GPGSA,A,3,23,04,08,27,16,,,,,,,,7.70,5.35,5.53*0D
$GPGSV,3,1,11,03,29,189,08,04,70,086,37,07,32,314,,08,47,113,42*7C
$GPGSV,3,2,11,09,63,345,,11,16,151,,16,15,036,27,23,77,068,36*7D
$GPGSV,3,3,11,27,33,071,45,28,10,225,06,30,11,287,*4D
$GPGLL,1904.89362,N,07253.30777,E,091141.00,A,A*68
$GPRMC,091142.00,A,1904.89352,N,07253.30765,E,0.471,,240120,,,A*75
$GPVTG,,T,,M,0.471,N,0.872,K,A*2C
$GPGGA,091142.00,1904.89352,N,07253.30765,E,1,05,5.35,10.7,M,-65.7,M,,*47
$GPGSA,A,3,23,04,08,27,16,,,,,,,,7.70,5.35,5.53*0D
$GPGSV,3,1,11,03,29,189,08,04,70,086,37,07,32,314,,08,47,113,42*7C
$GPGSV,3,2,11,09,63,345,,11,16,151,,16,15,036,28,23,77,070,36*7B
$GPGSV,3,3,11,27,33,071,45,28,10,225,06,30,11,287,*4D
$GPGLL,1904.89352,N,07253.30765,E,091142.00,A,A*6B
$GPRMC,091143.00,A,1904.89342,N,07253.30752,E,0.735,,240120,,,A*72
$GPVTG,,T,,M,0.735,N,1.361,K,A*27
$GPGGA,091143.00,1904.89342,N,07253.30752,E,1,05,5.36,10.4,M,-65.7,M,,*43
$GPGSA,A,3,23,04,08,27,16,,,,,,,,7.70,5.36,5.53*0E
$GPGSV,3,1,11,03,29,189,08,04,70,086,37,07,32,314,,08,47,113,42*7C
$GPGSV,3,2,11,09,63,345,,11,16,151,,16,15,036,27,23,77,070,36*74
$GPGSV,3,3,11,27,33,071,45,28,10,225,06,30,11,287,*4D
$GPGLL,1904.89342,N,07253.30752,E,091143.00,A,A*6F
$GPRMC,091144.00,A,1904.89329,N,07253.30738,E,0.538,,240120,,,A*7B
$GPVTG,,T,,M,0.538,N,0.997,K,A*2A
$GPGGA,091144.00,1904.89329,N,07253.30738,E,1,05,5.36,10.1,M,-65.7,M,,*40
$GPGSA,A,3,23,04,08,27,16,,,,,,,,7.70,5.36,5.53*0E
$GPGSV,3,1,11,03,29,189,08,04,70,086,37,07,32,314,,08,47,113,42*7C
$GPGSV,3,2,11,09,63,345,,11,16,151,,16,15,036,27,23,77,070,36*74
$GPGSV,3,3,11,27,33,071,44,28,10,225,06,30,11,287,*4C
$GPGLL,1904.89329,N,07253.30738,E,091144.00,A,A*69
$GPRMC,091145.00,A,1904.89319,N,07253.30721,E,0.197,,240120,,,A*70
$GPVTG,,T,,M,0.197,N,0.365,K,A*2C
$GPGGA,091145.00,1904.89319,N,07253.30721,E,1,05,5.36,9.8,M,-65.7,M,,*7B
$GPGSA,A,3,23,04,08,27,16,,,,,,,,7.70,5.36,5.53*0E
$GPGSV,3,1,11,03,29,189,08,04,70,086,37,07,32,314,,08,47,113,43*7D
$GPGSV,3,2,11,09,63,345,,11,16,151,,16,15,036,27,23,77,070,36*74
$GPGSV,3,3,11,27,33,071,44,28,10,225,06,30,11,287,*4C
$GPGLL,1904.89319,N,07253.30721,E,091145.00,A,A*63
$GPRMC,091146.00,A,1904.89309,N,07253.30700,E,0.091,,240120,,,A*76
$GPVTG,,T,,M,0.091,N,0.168,K,A*24
$GPGGA,091146.00,1904.89309,N,07253.30700,E,1,05,5.36,9.4,M,-65.7,M,,*76
$GPGSA,A,3,23,04,08,27,16,,,,,,,,7.70,5.36,5.53*0E
$GPGSV,3,1,11,03,29,189,10,04,70,086,37,07,32,314,,08,47,113,43*74
$GPGSV,3,2,11,09,63,345,,11,16,151,,16,15,036,27,23,77,070,36*74
$GPGSV,3,3,11,27,33,071,44,28,10,225,07,30,11,287,*4D
$GPGLL,1904.89309,N,07253.30700,E,091146.00,A,A*62
$GPRMC,091147.00,A,1904.89301,N,07253.30685,E,0.519,,240120,,,A*76
$GPVTG,,T,,M,0.519,N,0.962,K,A*23
$GPGGA,091147.00,1904.89301,N,07253.30685,E,1,05,5.36,9.1,M,-65.7,M,,*76
$GPGSA,A,3,23,04,08,27,16,,,,,,,,7.71,5.36,5.54*08
$GPGSV,3,1,11,03,29,189,10,04,70,086,37,07,32,314,,08,47,113,43*74
$GPGSV,3,2,11,09,63,345,,11,16,151,,16,15,036,27,23,77,070,36*74
$GPGSV,3,3,11,27,33,071,44,28,10,225,07,30,11,287,*4D
$GPGLL,1904.89301,N,07253.30685,E,091147.00,A,A*67
$GPRMC,091148.00,A,1904.89295,N,07253.30666,E,0.668,,240120,,,A*7D
$GPVTG,,T,,M,0.668,N,1.237,K,A*2C
$GPGGA,091148.00,1904.89295,N,07253.30666,E,1,05,5.36,8.8,M,-65.7,M,,*70
$GPGSA,A,3,23,04,08,27,16,,,,,,,,7.71,5.36,5.54*08
$GPGSV,3,1,11,03,29,189,,04,70,086,37,07,32,314,,08,47,113,43*75
$GPGSV,3,2,11,09,63,345,,11,16,151,,16,15,036,27,23,77,070,36*74
$GPGSV,3,3,11,27,33,071,44,28,10,225,07,30,11,288,*42
$GPGLL,1904.89295,N,07253.30666,E,091148.00,A,A*69
$GPRMC,091149.00,A,1904.89285,N,07253.30639,E,0.407,,240120,,,A*7C
$GPVTG,,T,,M,0.407,N,0.753,K,A*21
$GPGGA,091149.00,1904.89285,N,07253.30639,E,1,05,5.36,8.4,M,-65.7,M,,*76
$GPGSA,A,3,23,04,08,27,16,,,,,,,,7.71,5.36,5.54*08
$GPGSV,3,1,11,03,29,189,,04,70,086,37,07,32,314,,08,47,113,44*72
$GPGSV,3,2,11,09,63,345,,11,16,151,,16,15,036,27,23,77,070,36*74
$GPGSV,3,3,11,27,33,071,45,28,10,225,07,30,11,288,*43
$GPGLL,1904.89285,N,07253.30639,E,091149.00,A,A*63
$GPRMC,091150.00,A,1904.89282,N,07253.30624,E,0.217,,240120,,,A*78
$GPVTG,,T,,M,0.217,N,0.402,K,A*21
$GPGGA,091150.00,1904.89282,N,07253.30624,E,1,05,5.36,8.2,M,-65.7,M,,*73
$GPGSA,A,3,23,04,08,27,16,,,,,,,,7.71,5.36,5.54*08
$GPGSV,3,1,11,03,29,189,,04,70,086,37,07,32,314,,08,47,113,43*75
$GPGSV,3,2,11,09,63,345,,11,16,151,,16,15,036,27,23,77,070,36*74
$GPGSV,3,3,11,27,33,071,44,28,10,225,07,30,11,288,*42
$GPGLL,1904.89282,N,07253.30624,E,091150.00,A,A*60
$GPRMC,091151.00,A,1904.89275,N,07253.30613,E,0.370,,240120,,,A*75
$GPVTG,,T,,M,0.370,N,0.686,K,A*2F
$GPGGA,091151.00,1904.89275,N,07253.30613,E,1,05,5.36,8.0,M,-65.7,M,,*7C
$GPGSA,A,3,23,04,08,27,16,,,,,,,,7.71,5.36,5.54*08
$GPGSV,3,1,11,03,29,189,,04,70,086,37,07,32,314,,08,47,113,41*77
$GPGSV,3,2,11,09,63,345,,11,16,151,,16,15,036,27,23,77,070,36*74
$GPGSV,3,3,11,27,33,071,43,28,10,225,,30,11,288,*42
$GPGLL,1904.89275,N,07253.30613,E,091151.00,A,A*6D
$GPRMC,091152.00,A,1904.89267,N,07253.30595,E,0.562,,240120,,,A*7D
$GPVTG,,T,,M,0.562,N,1.040,K,A*27
$GPGGA,091152.00,1904.89267,N,07253.30595,E,1,05,5.36,7.7,M,-65.7,M,,*79
$GPGSA,A,3,23,04,08,27,16,,,,,,,,7.71,5.36,5.54*08
$GPGSV,3,1,11,03,29,189,,04,70,086,37,07,32,314,,08,47,113,44*72
$GPGSV,3,2,11,09,63,345,,11,16,151,,16,15,036,28,23,77,070,36*7B
$GPGSV,3,3,11,27,33,071,43,28,10,225,,30,11,288,*42
$GPGLL,1904.89267,N,07253.30595,E,091152.00,A,A*60
$GPRMC,091153.00,A,1904.89260,N,07253.30574,E,0.727,,240120,,,A*77
$GPVTG,,T,,M,0.727,N,1.347,K,A*20
$GPGGA,091153.00,1904.89260,N,07253.30574,E,1,05,5.37,7.4,M,-65.7,M,,*72
$GPGSA,A,3,23,04,08,27,16,,,,,,,,7.72,5.37,5.54*0A
$GPGSV,3,1,11,03,29,189,,04,70,086,39,07,32,314,,08,47,113,41*79
$GPGSV,3,2,11,09,63,345,,11,16,151,,16,15,036,28,23,77,070,39*74
$GPGSV,3,3,11,27,33,071,44,28,10,225,,30,11,288,*45
$GPGLL,1904.89260,N,07253.30574,E,091153.00,A,A*69
